{
  "Salzburg": [
    {
      "name": "Mirabell Palace",
      "wiki_title": "Mirabell Palace",
      "lat": 47.8056,
      "lng": 13.0433
    },
    {
      "name": "Salzburg Cathedral",
      "wiki_title": "Salzburg Cathedral",
      "lat": 47.7972,
      "lng": 13.0467
    },
    {
      "name": "Mozart's Birthplace",
      "wiki_title": "Mozart's Birthplace",
      "lat": 47.8028,
      "lng": 13.0433
    },
    {
      "name": "Hellbrunn Palace",
      "wiki_title": "Hellbrunn Palace",
      "lat": 47.762,
      "lng": 13.06
    },
    {
      "name": "St Peter's Abbey",
      "wiki_title": "St Peter's Abbey, Salzburg",
      "lat": 47.797,
      "lng": 13.046
    },
    {
      "name": "Getreidegasse",
      "wiki_title": "Getreidegasse",
      "lat": 47.8003,
      "lng": 13.043
    },
    {
      "name": "Mönchsberg",
      "wiki_title": "Mönchsberg",
      "lat": 47.799,
      "lng": 13.04
    },
    {
      "name": "Nonnberg Abbey",
      "wiki_title": "Nonnberg Abbey",
      "lat": 47.796,
      "lng": 13.052
    },
    {
      "name": "Residenzplatz",
      "wiki_title": "Residenzplatz",
      "lat": 47.7995,
      "lng": 13.046
    }
  ],
  "Innsbruck": [
    {
      "name": "Golden Roof",
      "wiki_title": "Golden Roof",
      "lat": 47.2685,
      "lng": 11.3933
    },
    {
      "name": "Ambras Castle",
      "wiki_title": "Ambras Castle",
      "lat": 47.256,
      "lng": 11.434
    },
    {
      "name": "Bergisel Ski Jump",
      "wiki_title": "Bergisel Ski Jump",
      "lat": 47.258,
      "lng": 11.401
    },
    {
      "name": "Nordkette Cable Car",
      "wiki_title": "Nordkette",
      "lat": 47.283,
      "lng": 11.393
    },
    {
      "name": "Hofburg, Innsbruck",
      "wiki_title": "Hofburg, Innsbruck",
      "lat": 47.268,
      "lng": 11.394
    },
    {
      "name": "Court Church",
      "wiki_title": "Court Church, Innsbruck",
      "lat": 47.2685,
      "lng": 11.395
    },
    {
      "name": "Triumphpforte",
      "wiki_title": "Triumphpforte",
      "lat": 47.262,
      "lng": 11.394
    },
    {
      "name": "Alpenzoo Innsbruck",
      "wiki_title": "Alpenzoo",
      "lat": 47.288,
      "lng": 11.395
    },
    {
      "name": "Swarovski Kristallwelten",
      "wiki_title": "Swarovski Kristallwelten",
      "lat": 47.293,
      "lng": 11.601
    }
  ],
  "Graz": [
    {
      "name": "Eggenberg Palace",
      "wiki_title": "Eggenberg Palace, Graz",
      "lat": 47.073,
      "lng": 15.391
    },
    {
      "name": "Murinsel",
      "wiki_title": "Murinsel",
      "lat": 47.0705,
      "lng": 15.438
    },
    {
      "name": "Graz Cathedral",
      "wiki_title": "Graz Cathedral",
      "lat": 47.071,
      "lng": 15.438
    },
    {
      "name": "Landeszeughaus",
      "wiki_title": "Landeszeughaus",
      "lat": 47.07,
      "lng": 15.437
    },
    {
      "name": "Graz Old Town",
      "wiki_title": "Graz",
      "lat": 47.071,
      "lng": 15.438
    },
    {
      "name": "Kunsthaus Graz",
      "wiki_title": "Kunsthaus Graz",
      "lat": 47.071,
      "lng": 15.434
    },
    {
      "name": "Marienkapelle, Graz",
      "wiki_title": "Marienkapelle, Graz",
      "lat": 47.071,
      "lng": 15.437
    },
    {
      "name": "Graz Opera House",
      "wiki_title": "Oper Graz",
      "lat": 47.073,
      "lng": 15.442
    },
    {
      "name": "Botanical Garden Graz",
      "wiki_title": "Botanical Garden of Graz",
      "lat": 47.08,
      "lng": 15.456
    }
  ],
  "Linz": [
    {
      "name": "Ars Electronica Center",
      "wiki_title": "Ars Electronica Center",
      "lat": 48.307,
      "lng": 14.284
    },
    {
      "name": "Lentos Art Museum",
      "wiki_title": "Lentos Art Museum",
      "lat": 48.305,
      "lng": 14.286
    },
    {
      "name": "Pöstlingberg",
      "wiki_title": "Pöstlingberg",
      "lat": 48.324,
      "lng": 14.259
    },
    {
      "name": "New Cathedral, Linz",
      "wiki_title": "New Cathedral, Linz",
      "lat": 48.3,
      "lng": 14.286
    },
    {
      "name": "Linz Castle",
      "wiki_title": "Linz Castle",
      "lat": 48.306,
      "lng": 14.279
    },
    {
      "name": "Hauptplatz, Linz",
      "wiki_title": "Hauptplatz (Linz)",
      "lat": 48.306,
      "lng": 14.286
    },
    {
      "name": "Voestalpine Stahlwelt",
      "wiki_title": "Voestalpine Stahlwelt",
      "lat": 48.283,
      "lng": 14.32
    },
    {
      "name": "Botanical Garden Linz",
      "wiki_title": "Botanical Garden of the Upper Austrian State Museum",
      "lat": 48.298,
      "lng": 14.278
    },
    {
      "name": "Old Cathedral, Linz",
      "wiki_title": "Old Cathedral, Linz",
      "lat": 48.305,
      "lng": 14.285
    },
    {
      "name": "Danube River Linz",
      "wiki_title": "Danube",
      "lat": 48.305,
      "lng": 14.29
    }
  ],
  "Klagenfurt": [
    {
      "name": "Lindwurm Fountain",
      "wiki_title": "Lindwurmbrunnen",
      "lat": 46.624,
      "lng": 14.305
    },
    {
      "name": "Minimundus",
      "wiki_title": "Minimundus",
      "lat": 46.609,
      "lng": 14.271
    },
    {
      "name": "Wörthersee",
      "wiki_title": "Wörthersee",
      "lat": 46.633,
      "lng": 14.133
    },
    {
      "name": "Klagenfurt Cathedral",
      "wiki_title": "Klagenfurt Cathedral",
      "lat": 46.624,
      "lng": 14.306
    },
    {
      "name": "Landhaus Klagenfurt",
      "wiki_title": "Landhaus Klagenfurt",
      "lat": 46.624,
      "lng": 14.307
    },
    {
      "name": "Pyramidenkogel",
      "wiki_title": "Pyramidenkogel",
      "lat": 46.607,
      "lng": 14.145
    },
    {
      "name": "Maria Saal Basilica",
      "wiki_title": "Maria Saal Basilica",
      "lat": 46.671,
      "lng": 14.348
    },
    {
      "name": "Hochosterwitz Castle",
      "wiki_title": "Hochosterwitz Castle",
      "lat": 46.755,
      "lng": 14.453
    },
    {
      "name": "Kreuzbergl",
      "wiki_title": "Kreuzbergl",
      "lat": 46.635,
      "lng": 14.318
    },
    {
      "name": "Robert Musil Literature Museum",
      "wiki_title": "Robert Musil Literature Museum",
      "lat": 46.624,
      "lng": 14.305
    }
  ],
  "Bregenz": [
    {
      "name": "Pfänder",
      "wiki_title": "Pfänder",
      "lat": 47.502,
      "lng": 9.773
    },
    {
      "name": "Lake Constance Promenade",
      "wiki_title": "Lake Constance",
      "lat": 47.503,
      "lng": 9.747
    },
    {
      "name": "Bregenz Festival House",
      "wiki_title": "Festspielhaus Bregenz",
      "lat": 47.503,
      "lng": 9.747
    },
    {
      "name": "Martins Tower",
      "wiki_title": "Martinsturm (Bregenz)",
      "lat": 47.503,
      "lng": 9.747
    },
    {
      "name": "Kunsthaus Bregenz",
      "wiki_title": "Kunsthaus Bregenz",
      "lat": 47.504,
      "lng": 9.747
    },
    {
      "name": "Vorarlberg Museum",
      "wiki_title": "Vorarlberg Museum",
      "lat": 47.503,
      "lng": 9.747
    },
    {
      "name": "St Gallus Church Bregenz",
      "wiki_title": "St Gallus Church, Bregenz",
      "lat": 47.503,
      "lng": 9.747
    },
    {
      "name": "Hard Castle",
      "wiki_title": "Hard Castle",
      "lat": 47.489,
      "lng": 9.687
    },
    {
      "name": "Mehrerau Abbey",
      "wiki_title": "Mehrerau Abbey",
      "lat": 47.497,
      "lng": 9.723
    },
    {
      "name": "Floating Stage Bregenz",
      "wiki_title": "Bregenz Festival",
      "lat": 47.503,
      "lng": 9.747
    }
  ],
  "Hallstatt": [
    {
      "name": "Hallstatt Salt Mine",
      "wiki_title": "Hallstatt Salt Mine",
      "lat": 47.562,
      "lng": 13.649
    },
    {
      "name": "Skywalk Hallstatt",
      "wiki_title": "Hallstatt Skywalk",
      "lat": 47.563,
      "lng": 13.65
    },
    {
      "name": "Hallstätter See",
      "wiki_title": "Hallstätter See",
      "lat": 47.567,
      "lng": 13.655
    },
    {
      "name": "Dachstein Ice Cave",
      "wiki_title": "Dachstein Ice Cave",
      "lat": 47.528,
      "lng": 13.619
    },
    {
      "name": "Hallstatt Bone House",
      "wiki_title": "Hallstatt Charnel House",
      "lat": 47.562,
      "lng": 13.649
    },
    {
      "name": "Catholic Parish Church Hallstatt",
      "wiki_title": "Catholic Parish Church Hallstatt",
      "lat": 47.562,
      "lng": 13.649
    },
    {
      "name": "Market Square Hallstatt",
      "wiki_title": "Hallstatt",
      "lat": 47.562,
      "lng": 13.649
    },
    {
      "name": "Gosau Valley",
      "wiki_title": "Gosau",
      "lat": 47.584,
      "lng": 13.533
    },
    {
      "name": "Five Fingers Viewing Platform",
      "wiki_title": "Five Fingers (Dachstein)",
      "lat": 47.528,
      "lng": 13.619
    }
  ],
  "Melk (Wachau Valley)": [
    {
      "name": "Wachau Valley",
      "wiki_title": "Wachau",
      "lat": 48.37,
      "lng": 15.416
    },
    {
      "name": "Stift Göttweig",
      "wiki_title": "Göttweig Abbey",
      "lat": 48.364,
      "lng": 15.451
    },
    {
      "name": "Aggstein Castle",
      "wiki_title": "Aggstein Castle",
      "lat": 48.312,
      "lng": 15.421
    },
    {
      "name": "Dürnstein Abbey",
      "wiki_title": "Dürnstein Abbey",
      "lat": 48.396,
      "lng": 15.52
    },
    {
      "name": "Krems Old Town",
      "wiki_title": "Krems an der Donau",
      "lat": 48.409,
      "lng": 15.614
    },
    {
      "name": "Spitz an der Donau",
      "wiki_title": "Spitz, Austria",
      "lat": 48.417,
      "lng": 15.367
    },
    {
      "name": "Schallaburg Castle",
      "wiki_title": "Schallaburg",
      "lat": 48.183,
      "lng": 15.456
    },
    {
      "name": "Danube River Wachau",
      "wiki_title": "Danube",
      "lat": 48.227,
      "lng": 15.331
    },
    {
      "name": "Maria Taferl Basilica",
      "wiki_title": "Maria Taferl Basilica",
      "lat": 48.15,
      "lng": 15.153
    }
  ],
  "Zell am See": [
    {
      "name": "Kaprun Glacier",
      "wiki_title": "Kitzsteinhorn",
      "lat": 47.191,
      "lng": 12.685
    },
    {
      "name": "Schmittenhöhe",
      "wiki_title": "Schmittenhöhe",
      "lat": 47.325,
      "lng": 12.731
    },
    {
      "name": "Lake Zell",
      "wiki_title": "Zeller See (Salzburg)",
      "lat": 47.325,
      "lng": 12.798
    },
    {
      "name": "Krimml Waterfalls",
      "wiki_title": "Krimml Waterfalls",
      "lat": 47.2,
      "lng": 12.172
    },
    {
      "name": "Saalbach-Hinterglemm",
      "wiki_title": "Saalbach-Hinterglemm",
      "lat": 47.391,
      "lng": 12.636
    },
    {
      "name": "Pinzgauer Lokalbahn",
      "wiki_title": "Pinzgauer Lokalbahn",
      "lat": 47.325,
      "lng": 12.798
    },
    {
      "name": "St Hippolyte Church Zell",
      "wiki_title": "St Hippolyte's Church, Zell am See",
      "lat": 47.325,
      "lng": 12.798
    },
    {
      "name": "Areitbahn Cable Car",
      "wiki_title": "Schmittenhöhe cable car",
      "lat": 47.325,
      "lng": 12.731
    },
    {
      "name": "Thumersbach",
      "wiki_title": "Thumersbach",
      "lat": 47.335,
      "lng": 12.805
    }
  ],
  "Vienna": [
    {
      "name": "Hofburg Palace",
      "wiki_title": "Hofburg",
      "lat": 48.206,
      "lng": 16.365,
      "image_url": "https://upload.wikimedia.org/wikipedia/commons/thumb/3/31/Wien_-_Neue_Hofburg.JPG/960px-Wien_-_Neue_Hofburg.JPG"
    },
    {
      "name": "Belvedere Palace",
      "wiki_title": "Belvedere, Vienna",
      "lat": 48.191,
      "lng": 16.38
    },
    {
      "name": "St Stephen's Cathedral",
      "wiki_title": "St. Stephen's Cathedral, Vienna",
      "lat": 48.208,
      "lng": 16.373
    },
    {
      "name": "Vienna State Opera",
      "wiki_title": "Vienna State Opera",
      "lat": 48.203,
      "lng": 16.369
    },
    {
      "name": "Prater",
      "wiki_title": "Wurstelprater",
      "lat": 48.216,
      "lng": 16.395
    },
    {
      "name": "Karlskirche",
      "wiki_title": "Karlskirche, Vienna",
      "lat": 48.1984,
      "lng": 16.3717,
      "image_url": "https://upload.wikimedia.org/wikipedia/commons/5/56/Vienna_-_Karlskirche.jpg"
    },
    {
      "name": "Albertina",
      "wiki_title": "Albertina",
      "lat": 48.204,
      "lng": 16.368
    },
    {
      "name": "Hundertwasserhaus",
      "wiki_title": "Hundertwasserhaus",
      "lat": 48.207,
      "lng": 16.394
    },
    {
      "name": "Spanish Riding School",
      "wiki_title": "Spanish Riding School",
      "lat": 48.206,
      "lng": 16.366
    }
  ]
}