{
  "Dresden": [
    { "name": "Frauenkirche, Dresden", "wiki_title": "Frauenkirche, Dresden", "lat": 51.0519, "lng": 13.7415 },
    { "name": "Zwinger", "wiki_title": "Zwinger", "lat": 51.053, "lng": 13.7339 },
    { "name": "Semperoper", "wiki_title": "Semperoper", "lat": 51.0541, "lng": 13.7353 },
    { "name": "Dresden Castle", "wiki_title": "Dresden Castle", "lat": 51.0527, "lng": 13.7375 },
    { "name": "Brühl's Terrace", "wiki_title": "Brühl's Terrace", "lat": 51.0534, "lng": 13.7402 },
    { "name": "Albertinum", "wiki_title": "Albertinum", "lat": 51.0522, "lng": 13.7431 },
    { "name": "Blue Wonder", "wiki_title": "Blue Wonder", "lat": 51.0467, "lng": 13.8222 },
    { "name": "Pillnitz Castle", "wiki_title": "Pillnitz Castle", "lat": 51.0089, "lng": 13.8703 },
    { "name": "Procession of Princes", "wiki_title": "Procession of Princes", "lat": 51.0528, "lng": 13.7395 },
    { "name": "Dresden Cathedral", "wiki_title": "Dresden Cathedral", "lat": 51.0525, "lng": 13.7378 }
  ],
  "Nuremberg": [
    { "name": "Nuremberg Castle", "wiki_title": "Nuremberg Castle", "lat": 49.4582, "lng": 11.0755 },
    { "name": "Hauptmarkt, Nuremberg", "wiki_title": "Hauptmarkt, Nuremberg", "lat": 49.4547, "lng": 11.0775 },
    { "name": "St. Lorenz, Nuremberg", "wiki_title": "St. Lorenz, Nuremberg", "lat": 49.4514, "lng": 11.0778 },
    { "name": "St. Sebaldus Church, Nuremberg", "wiki_title": "St. Sebaldus Church, Nuremberg", "lat": 49.4556, "lng": 11.0758 },
    { "name": "Schöner Brunnen", "wiki_title": "Schöner Brunnen", "lat": 49.4544, "lng": 11.0772 },
    { "name": "Frauenkirche, Nuremberg", "wiki_title": "Frauenkirche, Nuremberg", "lat": 49.4542, "lng": 11.0778 },
    { "name": "Germanisches Nationalmuseum", "wiki_title": "Germanisches Nationalmuseum", "lat": 49.4481, "lng": 11.0758 },
    { "name": "Albrecht Dürer's House", "wiki_title": "Albrecht Dürer's House", "lat": 49.4572, "lng": 11.0739 },
    { "name": "St. Elizabeth's Church, Nuremberg", "wiki_title": "St. Elizabeth's Church, Nuremberg", "lat": 49.4497, "lng": 11.0772 },
    { "name": "Nuremberg Transport Museum", "wiki_title": "Nuremberg Transport Museum", "lat": 49.4467, "lng": 11.0828 }
  ],
  "Stuttgart": [
    { "name": "Mercedes-Benz Museum", "wiki_title": "Mercedes-Benz Museum", "lat": 48.7883, "lng": 9.2342 },
    { "name": "New Palace, Stuttgart", "wiki_title": "New Palace, Stuttgart", "lat": 48.7781, "lng": 9.1822 },
    { "name": "Old Castle, Stuttgart", "wiki_title": "Old Castle, Stuttgart", "lat": 48.7769, "lng": 9.1794 },
    { "name": "Schlossplatz, Stuttgart", "wiki_title": "Schlossplatz, Stuttgart", "lat": 48.7786, "lng": 9.1819 },
    { "name": "Stuttgart TV Tower", "wiki_title": "Stuttgart TV Tower", "lat": 48.7558, "lng": 9.1903 },
    { "name": "Staatsgalerie Stuttgart", "wiki_title": "Staatsgalerie Stuttgart", "lat": 48.7803, "lng": 9.185 },
    { "name": "Wilhelma", "wiki_title": "Wilhelma", "lat": 48.8042, "lng": 9.2083 },
    { "name": "Stiftskirche, Stuttgart", "wiki_title": "Stiftskirche, Stuttgart", "lat": 48.7767, "lng": 9.1797 },
    { "name": "Killesberg Tower", "wiki_title": "Killesberg Tower", "lat": 48.8056, "lng": 9.1711 },
    { "name": "Solitude Palace", "wiki_title": "Solitude Palace", "lat": 48.7878, "lng": 9.0853 }
  ],
  "Düsseldorf": [
    { "name": "Rhine Tower", "wiki_title": "Rhine Tower", "lat": 51.2178, "lng": 6.7617 },
    { "name": "Königsallee", "wiki_title": "Königsallee", "lat": 51.2256, "lng": 6.7794 },
    { "name": "St. Lambertus, Düsseldorf", "wiki_title": "St. Lambertus, Düsseldorf", "lat": 51.2278, "lng": 6.7731 },
    { "name": "Schlossturm, Düsseldorf", "wiki_title": "Schlossturm, Düsseldorf", "lat": 51.2275, "lng": 6.7725 },
    { "name": "Media Harbor Düsseldorf", "wiki_title": "Media Harbor Düsseldorf", "lat": 51.2167, "lng": 6.7583 },
    { "name": "Benrath Palace", "wiki_title": "Benrath Palace", "lat": 51.1619, "lng": 6.8722 },
    { "name": "Hofgarten, Düsseldorf", "wiki_title": "Hofgarten, Düsseldorf", "lat": 51.2289, "lng": 6.7797 },
    { "name": "K20", "wiki_title": "K20", "lat": 51.2272, "lng": 6.7739 },
    { "name": "Carlsplatz, Düsseldorf", "wiki_title": "Carlsplatz, Düsseldorf", "lat": 51.2258, "lng": 6.7714 },
    { "name": "Nordpark, Düsseldorf", "wiki_title": "Nordpark, Düsseldorf", "lat": 51.2556, "lng": 6.7389 }
  ],
  "Leipzig": [
    { "name": "St. Thomas Church, Leipzig", "wiki_title": "St. Thomas Church, Leipzig", "lat": 51.3394, "lng": 12.3725 },
    { "name": "Monument to the Battle of the Nations", "wiki_title": "Monument to the Battle of the Nations", "lat": 51.3125, "lng": 12.4131 },
    { "name": "Old Town Hall, Leipzig", "wiki_title": "Old Town Hall, Leipzig", "lat": 51.3403, "lng": 12.375 },
    { "name": "St. Nicholas Church, Leipzig", "wiki_title": "St. Nicholas Church, Leipzig", "lat": 51.34, "lng": 12.3786 },
    { "name": "Leipzig Zoo", "wiki_title": "Leipzig Zoo", "lat": 51.3486, "lng": 12.3714 },
    { "name": "Grassi Museum", "wiki_title": "Grassi Museum", "lat": 51.3378, "lng": 12.3931 },
    { "name": "Bach Museum Leipzig", "wiki_title": "Bach Museum Leipzig", "lat": 51.3392, "lng": 12.3728 },
    { "name": "Gewandhaus Leipzig", "wiki_title": "Gewandhaus Leipzig", "lat": 51.3381, "lng": 12.3806 },
    { "name": "Mädler Passage", "wiki_title": "Mädler Passage", "lat": 51.3397, "lng": 12.3744 },
    { "name": "Augustusplatz", "wiki_title": "Augustusplatz", "lat": 51.3389, "lng": 12.3797 }
  ]
}
