{
  "Birgu": [
    { "name": "Fort St Angelo", "wiki_title": "Fort St Angelo", "lat": 35.888, "lng": 14.519 },
    { "name": "Inquisitor's Palace", "wiki_title": "Inquisitor's Palace", "lat": 35.888, "lng": 14.522 },
    { "name": "St Lawrence's Church, Birgu", "wiki_title": "St Lawrence's Church, Birgu", "lat": 35.888, "lng": 14.521 },
    { "name": "Malta Maritime Museum", "wiki_title": "Malta Maritime Museum", "lat": 35.888, "lng": 14.521 },
    { "name": "Couvre Porte", "wiki_title": "Couvre Porte", "lat": 35.887, "lng": 14.523 },
    { "name": "Auberge de France", "wiki_title": "Auberge de France", "lat": 35.888, "lng": 14.522 },
    { "name": "Church of the Annunciation, Birgu", "wiki_title": "Church of the Annunciation, Birgu", "lat": 35.888, "lng": 14.522 },
    { "name": "Birgu Clock Tower", "wiki_title": "Birgu Clock Tower", "lat": 35.888, "lng": 14.521 },
    { "name": "Vittoriosa Waterfront", "wiki_title": "Birgu", "lat": 35.888, "lng": 14.519 },
    { "name": "Church of St Dominic, Birgu", "wiki_title": "Church of St Dominic, Birgu", "lat": 35.888, "lng": 14.522 }
  ],
  "Mosta": [
    { "name": "Rotunda of Mosta", "wiki_title": "Rotunda of Mosta", "lat": 35.909, "lng": 14.426 },
    { "name": "Santa Marija Assunta Church", "wiki_title": "Santa Marija Assunta Church", "lat": 35.909, "lng": 14.427 },
    { "name": "Verdala Palace", "wiki_title": "Verdala Palace", "lat": 35.872, "lng": 14.401 },
    { "name": "Mosta Bridge", "wiki_title": "Mosta Bridge", "lat": 35.909, "lng": 14.425 },
    { "name": "St Paul's Statue, Mosta", "wiki_title": "Rotunda of Mosta", "lat": 35.909, "lng": 14.426 },
    { "name": "Mosta Dome", "wiki_title": "Rotunda of Mosta", "lat": 35.909, "lng": 14.426 },
    { "name": "Speranza Chapel", "wiki_title": "Speranza Chapel", "lat": 35.908, "lng": 14.428 },
    { "name": "Mosta Parish Museum", "wiki_title": "Rotunda of Mosta", "lat": 35.909, "lng": 14.426 },
    { "name": "Victoria Lines", "wiki_title": "Victoria Lines", "lat": 35.91, "lng": 14.43 },
    { "name": "Wied il-Ghasel", "wiki_title": "Wied il-Għasel", "lat": 35.912, "lng": 14.432 },
    { "name": "Mosta Valley", "wiki_title": "Mosta", "lat": 35.909, "lng": 14.426 }
  ],
  "Rabat": [
    { "name": "St Paul's Church, Rabat", "wiki_title": "St Paul's Church, Rabat", "lat": 35.881, "lng": 14.398 },
    { "name": "Domus Romana", "wiki_title": "Domus Romana", "lat": 35.881, "lng": 14.398 },
    { "name": "Wignacourt Museum", "wiki_title": "Wignacourt Museum", "lat": 35.881, "lng": 14.398 },
    { "name": "St Cataldus Church", "wiki_title": "St Cataldus Church", "lat": 35.881, "lng": 14.398 },
    { "name": "Howard Gardens", "wiki_title": "Howard Gardens", "lat": 35.881, "lng": 14.397 },
    { "name": "Mdina Gate", "wiki_title": "Mdina Gate", "lat": 35.886, "lng": 14.401 },
    { "name": "Vilhena Palace", "wiki_title": "Vilhena Palace", "lat": 35.886, "lng": 14.402 },
    { "name": "Casa Bernard", "wiki_title": "Casa Bernard", "lat": 35.881, "lng": 14.398 },
    { "name": "Verdala Palace", "wiki_title": "Verdala Palace", "lat": 35.872, "lng": 14.401 },
    { "name": "Buskett Gardens", "wiki_title": "Buskett Gardens", "lat": 35.868, "lng": 14.398 }
  ],
  "Gharb": [
    { "name": "Ta' Pinu Basilica", "wiki_title": "Ta' Pinu", "lat": 36.061, "lng": 14.203 },
    { "name": "Gharb Parish Church", "wiki_title": "Gharb Parish Church", "lat": 36.06, "lng": 14.209 },
    { "name": "Folklore Museum, Gharb", "wiki_title": "Folklore Museum, Gharb", "lat": 36.06, "lng": 14.209 },
    { "name": "Wied il-Mielaħ", "wiki_title": "Wied il-Mielaħ", "lat": 36.055, "lng": 14.19 },
    { "name": "Azure Window site", "wiki_title": "Azure Window", "lat": 36.055, "lng": 14.19 },
    { "name": "Dwejra Bay", "wiki_title": "Dwejra", "lat": 36.053, "lng": 14.19 },
    { "name": "Fungus Rock", "wiki_title": "Fungus Rock", "lat": 36.053, "lng": 14.188 },
    { "name": "Inland Sea, Gozo", "wiki_title": "Inland Sea, Gozo", "lat": 36.053, "lng": 14.191 },
    { "name": "Gharb Square", "wiki_title": "Gharb", "lat": 36.06, "lng": 14.209 },
    { "name": "San Dimitri Chapel", "wiki_title": "San Dimitri Chapel", "lat": 36.062, "lng": 14.205 }
  ]
}
